{"type":"FeatureCollection","features":[{"type":"Feature","geometry":{"type":"Point","coordinates":[2.062821,49.031624]},"properties":{"label":"8 Boulevard du Port 95000 Cergy","score":0.4714627074871386,"housenumber":"8","id":"95127_1448_00008","name":"8 Boulevard du Port","postcode":"95000","citycode":"95127","x":631468.28,"y":6881710.34,"city":"Cergy","context":"95, Val-d'Oise, Île-de-France","type":"housenumber","importance":0.67801,"street":"Boulevard du Port","distance":59496,"_type":"address"}},{"type":"Feature","geometry":{"type":"Point","coordinates":[2.290084,49.897442]},"properties":{"label":"8 Boulevard du Port 80000 Amiens","score":0.4511426754385964,"housenumber":"8","id":"80021_6590_00008","name":"8 Boulevard du Port","postcode":"80000","citycode":"80021","x":648952.58,"y":6977867.14,"city":"Amiens","context":"80, Somme, Hauts-de-France","type":"housenumber","importance":0.67687,"street":"Boulevard du Port","distance":128362,"_type":"address"}},{"type":"Feature","geometry":{"type":"Point","coordinates":[3.605884,43.425225]},"properties":{"label":"8 Boulevard du Port 34140 Mèze","score":0.4465101754385964,"housenumber":"8","id":"34157_0770_00008","banId":"51e3370b-b791-41e1-89fc-11a2c2ea9519","name":"8 Boulevard du Port","postcode":"34140","citycode":"34157","x":749085.29,"y":6258645.39,"city":"Mèze","context":"34, Hérault, Occitanie","type":"housenumber","importance":0.62128,"street":"Boulevard du Port","distance":599353,"_type":"address"}},{"type":"Feature","geometry":{"type":"Point","coordinates":[3.036731,42.79091]},"properties":{"label":"8 Boulevard du Port 66420 Le Barcarès","score":0.4411360087719297,"housenumber":"8","id":"66017_0249_00008","name":"8 Boulevard du Port","postcode":"66420","citycode":"66017","x":703008.57,"y":6187933.13,"city":"Le Barcarès","context":"66, Pyrénées-Orientales, Occitanie","type":"housenumber","importance":0.55679,"street":"Boulevard du Port","distance":666813,"_type":"address"}},{"type":"Feature","geometry":{"type":"Point","coordinates":[-2.340983,47.258811]},"properties":{"label":"8 Boulevard du Port 44380 Pornichet","score":0.43744600877192974,"housenumber":"8","id":"44132_0141_00008","banId":"e39398ae-b8aa-420a-a79c-02580b0f3ac2","name":"8 Boulevard du Port","postcode":"44380","citycode":"44132","x":296409.78,"y":6697932.63,"city":"Pornichet","context":"44, Loire-Atlantique, Pays de la Loire","type":"housenumber","importance":0.51251,"street":"Boulevard du Port","distance":417361,"_type":"address"}},{"type":"Feature","geometry":{"type":"Point","coordinates":[45.160161,-12.733779]},"properties":{"label":"Boulevard du Port 97600 Koungou","score":0.36649864035087715,"id":"97610_3111","banId":"1a781702-05d4-4c91-9e6e-49936ffd8808","name":"Boulevard du Port","postcode":"97600","citycode":"97610","x":517386.42,"y":8592299,"city":"Koungou","context":"976, Mayotte","type":"street","importance":0.60851,"street":"Boulevard du Port","distance":8001449,"_type":"address"}},{"type":"Feature","geometry":{"type":"Point","coordinates":[-1.556207,47.241855]},"properties":{"label":"8 Boulevard du Petit Port 44300 Nantes","score":0.3592766666666667,"housenumber":"8","id":"44109_6479_00008","banId":"2625be67-ddf4-4dea-822a-79a76de8eea4","name":"8 Boulevard du Petit Port","postcode":"44300","citycode":"44109","x":355531.08,"y":6692335.49,"city":"Nantes","context":"44, Loire-Atlantique, Pays de la Loire","type":"housenumber","importance":0.71132,"street":"Boulevard du Petit Port","distance":365829,"_type":"address"}},{"type":"Feature","geometry":{"type":"Point","coordinates":[-0.685048,47.37344]},"properties":{"label":"Boulevard du Port 49170 La Possonnière","score":0.3518511403508771,"id":"49247_0112","banId":"7dedc01b-55ff-462b-8959-6381f45c663b","name":"Boulevard du Port","postcode":"49170","citycode":"49247","x":422022.87,"y":6703498.9,"city":"La Possonnière","context":"49, Maine-et-Loire, Pays de la Loire","type":"street","importance":0.43274,"street":"Boulevard du Port","distance":302054,"_type":"address"}},{"type":"Feature","geometry":{"type":"Point","coordinates":[6.36319,43.121752]},"properties":{"label":"boulevard du Port 83230 Bormes-les-Mimosas","score":0.3516369736842105,"id":"83019_0756","banId":"c0d6e75b-b473-44f5-b8c7-36ebefb1de4e","name":"boulevard du Port","postcode":"83230","citycode":"83019","x":973823.39,"y":6230553.11,"city":"Bormes-les-Mimosas","context":"83, Var, Provence-Alpes-Côte d'Azur","type":"street","importance":0.43017,"street":"boulevard du Port","distance":687449,"_type":"address"}},{"type":"Feature","geometry":{"type":"Point","coordinates":[-1.499354,47.434451]},"properties":{"label":"8 Boulevard du port-mulon 44390 Nort-sur-Erdre","score":0.35042833333333334,"housenumber":"8","id":"44110_0640_00008","banId":"d0ea7494-2827-4a04-afe8-048308079628","name":"8 Boulevard du port-mulon","postcode":"44390","citycode":"44110","x":361043.13,"y":6713448.5,"city":"Nort-sur-Erdre","context":"44, Loire-Atlantique, Pays de la Loire","type":"housenumber","importance":0.60514,"street":"Boulevard du port-mulon","distance":351918,"_type":"address"}}]}